[
{"business_id":"mpf3x-BjTdTEA3yCZrAYPw","name":"The UPS Store","address":"87 Grasso Plaza Shopping Center","city":"Affton","state":"MO","stars":3.0,"review_count":15,"categories":"Shipping Centers, Local Services, Notaries, Mailbox Centers, Printing Services"},
{"business_id":"tUFrWirKiKi_TAnsVWINQQ","name":"Target","address":"5255 E Broadway Blvd","city":"Tucson","state":"AZ","stars":3.5,"review_count":22,"is_open":0,"categories":"Department Stores, Shopping, Fashion, Home & Garden, Electronics, Furniture Stores"},
{"business_id":"MTSW4McQd7CbVtyjqoe9mw","name":"St Honore Pastries","address":"935 Race St","city":"Philadelphia","state":"PA","stars":4.0,"review_count":80,"is_open":1,"categories":"Restaurants, Food, Bubble Tea, Coffee & Tea, Bakeries"},
{"business_id":"mWMc6_wTdE0EUBKIGXDVfA","name":"Perkiomen Valley Brewery","address":"101 Walnut St","city":"Green Lane","state":"PA","postal_code":"18054","latitude":40.3381827,"longitude":-75.4716585,"stars":4.5,"review_count":13,"is_open":1,"categories":"Brewpubs, Breweries, Food"},
{"business_id":"CF33F8-E6oudUQ46HnavjQ","name":"Sonic Drive-In","address":"615 S Main St","city":"Ashland City","state":"TN","postal_code":"37015","latitude":36.269593,"longitude":-87.058943,"stars":2.0,"review_count":6,"is_open":1,"categories":"Burgers, Fast Food, Sandwiches, Food, Ice Cream & Frozen Yogurt, Restaurants"},
{"business_id":"n_0UpQx1hsNbnPUSlodU8w","name":"Famous Footwear","address":"8522 Eager Road, Dierbergs Brentwood Point","city":"Brentwood","state":"MO","postal_code":"63144","latitude":38.627695,"longitude":-90.340465,"stars":2.5,"review_count":13,"is_open":1,"categories":"Sporting Goods, Fashion, Shoe Stores, Shopping, Sports Wear, Accessories"},
{"business_id":"qkRM_2X51Yqxk3btlwAQIg","name":"Temple Beth-El","address":"400 Pasadena Ave S","city":"St. Petersburg","state":"FL","postal_code":"33707","latitude":27.76659,"longitude":-82.732983,"stars":3.5,"review_count":5,"is_open":1,"attributes":null,"categories":"Synagogues, Religious Organizations"},
{"business_id":"k0hlBqXX-Bt0vf1op7Jr1w","name":"Tsevi's Pub And Grill","address":"8025 Mackenzie Rd","city":"Affton","state":"MO","postal_code":"63123","latitude":38.5651648,"longitude":-90.3210868,"stars":3.0,"review_count":19,"is_open":0,"categories":"Pubs, Restaurants, Italian, Bars, American (Traditional), Nightlife, Greek"},
{"business_id":"bBDDEgkFA1Otx9Lfe7BZUQ","name":"Sonic Drive-In","address":"2312 Dickerson Pike","city":"Nashville","state":"TN","postal_code":"37207","latitude":36.2081024,"longitude":-86.7681696,"stars":1.5,"review_count":10,"is_open":1,"categories":"Ice Cream & Frozen Yogurt, Fast Food, Burgers, Restaurants, Food"},
{"business_id":"UJsufbvfyfONHeWdvAHKjA","name":"Marshalls","address":"21705 Village Lakes Sc Dr","city":"Land O' Lakes","state":"FL","postal_code":"34639","latitude":28.1904587953,"longitude":-82.4573802199,"stars":3.5,"review_count":6,"is_open":1,"categories":"Department Stores, Shopping, Fashion"}
]
